{
"type": "FeatureCollection",
"crs": { "type": "name", "properties": { "name": "urn:ogc:def:crs:OGC:1.3:CRS84" } },
                                                                                
"features": [
{ "type": "Feature", "properties": { "name": "Alamoosook Lake", "x": 522121, "y": 4937696, "watershed": "Orland River", "subdrainag": null, "town": "Orland", "county": "Hancock County", "fw type": "Denil", "owner": "Champion Paper" }, "geometry": { "type": "Point", "coordinates": [ -68.721300664596868, 44.592268558079006 ] } },
{ "type": "Feature", "properties": { "name": "Dedham Falls", "x": 526989, "y": 4948794, "watershed": "Orland River", "subdrainag": "Mill Stream", "town": "Dedham", "county": "Hancock County", "fw type": "Denil", "owner": "Unknown" }, "geometry": { "type": "Point", "coordinates": [ -68.659386331552, 44.692010342976999 ] } },
{ "type": "Feature", "properties": { "name": "Ellsworth Trap", "x": 545287, "y": 4932517, "watershed": "Union River", "subdrainag": null, "town": "Ellsworth", "county": "Hancock County", "fw type": "Lift", "owner": "Black Bear Hydro" }, "geometry": { "type": "Point", "coordinates": [ -68.42990184326105, 44.544561254787972 ] } },
{ "type": "Feature", "properties": { "name": "Flanders Stream", "x": 567437, "y": 4930773, "watershed": "Flanders Stream", "subdrainag": null, "town": "Sullivan", "county": "Hancock County", "fw type": "Pool&Weir", "owner": "DMR" }, "geometry": { "type": "Point", "coordinates": [ -68.151318752013097, 44.527130269689458 ] } },
{ "type": "Feature", "properties": { "name": "Long Pond Outlet", "x": 551201, "y": 4910899, "watershed": "Long Pond Stream", "subdrainag": null, "town": "Somesville", "county": "Hancock County", "fw type": "Pool&Weir", "owner": "Unknown" }, "geometry": { "type": "Point", "coordinates": [ -68.357594088537638, 44.349555101048779 ] } },
{ "type": "Feature", "properties": { "name": "Long Pond Stream Lower", "x": 553095, "y": 4912309, "watershed": "Long Pond Stream", "subdrainag": null, "town": "Somesville", "county": "Hancock County", "fw type": "Denil", "owner": "Unknown" }, "geometry": { "type": "Point", "coordinates": [ -68.333688293038577, 44.36211228354162 ] } },
{ "type": "Feature", "properties": { "name": "Long Pond Stream Upper", "x": 552779, "y": 4912194, "watershed": "Long Pond Stream", "subdrainag": null, "town": "Somesville", "county": "Hancock County", "fw type": "Pool&Weir", "owner": "Unknown" }, "geometry": { "type": "Point", "coordinates": [ -68.33766531146378, 44.361100078133411 ] } },
{ "type": "Feature", "properties": { "name": "Orland Dam", "x": 520381, "y": 4935210, "watershed": "Orland River", "subdrainag": null, "town": "Orland", "county": "Hancock County", "fw type": "Alaskan Steeppass", "owner": "Champion Paper" }, "geometry": { "type": "Point", "coordinates": [ -68.743320937159638, 44.569939733585869 ] } },
{ "type": "Feature", "properties": { "name": "Philips Lake", "x": 530174, "y": 4952061, "watershed": "Orland River", "subdrainag": "Mill Stream", "town": "Dedham", "county": "Hancock County", "fw type": "Alaskan Steeppass", "owner": "DMR" }, "geometry": { "type": "Point", "coordinates": [ -68.61899812239767, 44.721293552997658 ] } },
{ "type": "Feature", "properties": { "name": "Seal Cove Pond", "x": 547713, "y": 4904413, "watershed": null, "subdrainag": null, "town": "Tremont", "county": "Hancock County", "fw type": "Notched flashboards", "owner": "Town of Tremont" }, "geometry": { "type": "Point", "coordinates": [ -68.401948137068203, 44.291402549633055 ] } },
{ "type": "Feature", "properties": { "name": "Toddy Pond", "x": 525562, "y": 4935025, "watershed": "Orland River", "subdrainag": null, "town": "Orland", "county": "Hancock County", "fw type": "Pool&Weir", "owner": "Champion Paper" }, "geometry": { "type": "Point", "coordinates": [ -68.678081341311312, 44.568109000674333 ] } },
{ "type": "Feature", "properties": { "name": "Walker Pond", "x": 525286, "y": 4910426, "watershed": "Bagaduce River", "subdrainag": null, "town": "Brooksville", "county": "Hancock County", "fw type": "Cement Sluice", "owner": "Unknown" }, "geometry": { "type": "Point", "coordinates": [ -68.682758474657263, 44.346662625254268 ] } },
{ "type": "Feature", "properties": { "name": "West Bay Pond", "x": 574394, "y": 4928235, "watershed": "West Bay Pond", "subdrainag": null, "town": "Gouldsboro", "county": "Hancock County", "fw type": "Denil", "owner": "DMR" }, "geometry": { "type": "Point", "coordinates": [ -68.064143127463794, 44.503600404888836 ] } },
{ "type": "Feature", "properties": { "name": "Wight Pond", "x": 525934, "y": 4922022, "watershed": "Bagaduce River", "subdrainag": "Winslow Stream", "town": "Penobscot", "county": "Hancock County", "fw type": "Alaskan Steeppass", "owner": "IF & W" }, "geometry": { "type": "Point", "coordinates": [ -68.674049647628465, 44.451035448945774 ] } },
{ "type": "Feature", "properties": { "name": "Bog Brook Flowage", "x": 578700, "y": 4960003, "watershed": "Narraguagus", "subdrainag": "Bog Brook Flowage", "town": "Beddington", "county": "Washington County", "fw type": "Alaskan Steeppass", "owner": "IF & W" }, "geometry": { "type": "Point", "coordinates": [ -68.005106473377452, 44.789091787011948 ] } },
{ "type": "Feature", "properties": { "name": "Boyden Lake", "x": 650627, "y": 4981618, "watershed": "Boyden Stream", "subdrainag": null, "town": "Perry", "county": "Washington County", "fw type": "Denil", "owner": "DMR" }, "geometry": { "type": "Point", "coordinates": [ -67.089790929578044, 44.972027835126077 ] } },
{ "type": "Feature", "properties": { "name": "Cathance Stream", "x": 632912, "y": 4971569, "watershed": "Cathance Stream", "subdrainag": null, "town": "Marion", "county": "Washington County", "fw type": "Denil", "owner": "DMR" }, "geometry": { "type": "Point", "coordinates": [ -67.316987318131339, 44.885141782750246 ] } },
{ "type": "Feature", "properties": { "name": "Cathance Stream (Lake outlet)", "x": 627806, "y": 4977335, "watershed": "Cathance Stream", "subdrainag": null, "town": "No 14 TWP", "county": "Washington County", "fw type": "Alaskan Steeppass", "owner": "DMR" }, "geometry": { "type": "Point", "coordinates": [ -67.380159113811033, 44.937961325226468 ] } },
{ "type": "Feature", "properties": { "name": "Cherryfield Ice dam", "x": 584254, "y": 4939963, "watershed": "Narraguagus", "subdrainag": null, "town": "Cherryfield", "county": "Washington County", "fw type": "Denil", "owner": "DMR" }, "geometry": { "type": "Point", "coordinates": [ -67.938208735893781, 44.608081547929906 ] } },
{ "type": "Feature", "properties": { "name": "Gardner Lake", "x": 629771, "y": 4957177, "watershed": "East Machias River", "subdrainag": "Chase Mills Stream", "town": "East Machias", "county": "Washington County", "fw type": "Denil", "owner": "DMR" }, "geometry": { "type": "Point", "coordinates": [ -67.360419583264189, 44.756214345263693 ] } },
{ "type": "Feature", "properties": { "name": "Great Works", "x": 636021, "y": 4971459, "watershed": "Cathance Stream", "subdrainag": null, "town": "Edmunds", "county": "Washington County", "fw type": "Alaskan Steeppass", "owner": "IF & W" }, "geometry": { "type": "Point", "coordinates": [ -67.277666389564203, 44.883565152562419 ] } },
{ "type": "Feature", "properties": { "name": "Meddybemps Lake runaround", "x": 629551, "y": 4988561, "watershed": "Dennys River", "subdrainag": null, "town": "Meddybemps", "county": "Washington County", "fw type": "Alaskan Steeppass", "owner": "DMR" }, "geometry": { "type": "Point", "coordinates": [ -67.355164411911531, 45.038659746876512 ] } },
{ "type": "Feature", "properties": { "name": "Meddybemps Lake", "x": 629427, "y": 4988658, "watershed": "Dennys River", "subdrainag": null, "town": "Meddybemps", "county": "Washington County", "fw type": "Denil", "owner": "DMR" }, "geometry": { "type": "Point", "coordinates": [ -67.356713130775503, 45.039555228354281 ] } },
{ "type": "Feature", "properties": { "name": "Pennamaquan Lower", "x": 645035, "y": 4980280, "watershed": "Pennamaquan River", "subdrainag": null, "town": "Pembroke", "county": "Washington County", "fw type": "Denil", "owner": "IF&W" }, "geometry": { "type": "Point", "coordinates": [ -67.161054633900733, 44.96115334125664 ] } },
{ "type": "Feature", "properties": { "name": "Pennamaquan Middle", "x": 645004, "y": 4980439, "watershed": "Pennamaquan River", "subdrainag": null, "town": "Pembroke", "county": "Washington County", "fw type": "Denil", "owner": "IF&W" }, "geometry": { "type": "Point", "coordinates": [ -67.161401783708726, 44.962590246424078 ] } },
{ "type": "Feature", "properties": { "name": "Pennamaquan Upper", "x": 642098, "y": 4982864, "watershed": "Pennamaquan River", "subdrainag": null, "town": "Pembroke", "county": "Washington County", "fw type": "Denil", "owner": "IF&W" }, "geometry": { "type": "Point", "coordinates": [ -67.197546825925954, 44.984996365226088 ] } },
{ "type": "Feature", "properties": { "name": "Pleasant River (Saco Falls)", "x": 596104, "y": 4950073, "watershed": "Pleasant River", "subdrainag": null, "town": "Columbia Falls", "county": "Washington County", "fw type": "Denil", "owner": "DMR" }, "geometry": { "type": "Point", "coordinates": [ -67.78700758854626, 44.697590368963432 ] } },
{ "type": "Feature", "properties": { "name": "Pleasant River Lake", "x": 581957, "y": 4965163, "watershed": "Pleasant River", "subdrainag": null, "town": "Beddington", "county": "Washington County", "fw type": "Alaskan Steeppass", "owner": "DMR\/IF&W" }, "geometry": { "type": "Point", "coordinates": [ -67.963107448571947, 44.835169575921341 ] } },
{ "type": "Feature", "properties": { "name": "Pokey Dam\/Crawford lake", "x": 611372, "y": 4985282, "watershed": "East Machias River", "subdrainag": null, "town": "Crawford", "county": "Washington County", "fw type": "Denil", "owner": "Crawford Lake Assoc." }, "geometry": { "type": "Point", "coordinates": [ -67.58662320203554, 45.01224228614663 ] } }
]
}
